[
  {
    "id": 1,
    "latitude": 34.5539097,
    "longitude": 69.0576472,
    "nameEn": "Afghanistan",
    "nameRu": "Афганистан",
    "flagResId": "flag_af",
    "alpha2": "AF",
    "continent": ""
  },
  {
    "id": 2,
    "latitude": 41.3310413,
    "longitude": 19.7828038,
    "nameEn": "Albania",
    "nameRu": "Албания",
    "flagResId": "flag_al",
    "alpha2": "AL",
    "continent": "Eurasia"
  },
  {
    "id": 3,
    "latitude": 36.7597907,
    "longitude": 3.0665139,
    "nameEn": "Algeria",
    "nameRu": "Алжир",
    "flagResId": "flag_dz",
    "alpha2": "DZ"
  },
  {
    "id": 4,
    "latitude": 42.5051006,
    "longitude": 1.5116108,
    "nameEn": "Andorra",
    "nameRu": "Андорра",
    "flagResId": "flag_ad",
    "alpha2": "AD",
    "continent": "Eurasia"
  },
  {
    "id": 5,
    "latitude": -8.8533562,
    "longitude": 13.2140644,
    "nameEn": "Angola",
    "nameRu": "Ангола",
    "flagResId": "flag_ao",
    "alpha2": "AO"
  },
  {
    "id": 6,
    "latitude": 17.117738,
    "longitude": -61.835963,
    "nameEn": "Antigua and Barbuda",
    "nameRu": "Антигуа и Барбуда",
    "flagResId": "flag_ag",
    "alpha2": "AG"
  },
  {
    "id": 7,
    "latitude": -34.6156625,
    "longitude": -58.5033381,
    "nameEn": "Argentina",
    "nameRu": "Аргентина",
    "flagResId": "flag_ar",
    "alpha2": "AR"
  },
  {
    "id": 8,
    "latitude": 40.1535005,
    "longitude": 44.4185274,
    "nameEn": "Armenia",
    "nameRu": "Армения",
    "flagResId": "flag_am",
    "alpha2": "AM",
    "continent": "Eurasia"
  },
  {
    "id": 9,
    "latitude": -35.3136188,
    "longitude": 148.9896998,
    "nameEn": "Australia",
    "nameRu": "Австралия",
    "flagResId": "flag_au",
    "alpha2": "AU"
  },
  {
    "id": 10,
    "latitude": 48.2208286,
    "longitude": 16.2399776,
    "nameEn": "Austria",
    "nameRu": "Австрия",
    "flagResId": "flag_at",
    "alpha2": "AT",
    "continent": "Eurasia"
  },
  {
    "id": 11,
    "latitude": 40.3947021,
    "longitude": 49.7849199,
    "nameEn": "Azerbaijan",
    "nameRu": "Азербайджан",
    "flagResId": "flag_az",
    "alpha2": "AZ",
    "continent": "Eurasia"
  },
  {
    "id": 12,
    "latitude": 24.669668,
    "longitude": -78.004437,
    "nameEn": "Bahamas",
    "nameRu": "Багамские Острова",
    "flagResId": "flag_bs",
    "alpha2": "BS"
  },
  {
    "id": 13,
    "latitude": 26.2266894,
    "longitude": 50.5540067,
    "nameEn": "Bahrain",
    "nameRu": "Бахрейн",
    "flagResId": "flag_bh",
    "alpha2": "BH"
  },
  {
    "id": 14,
    "latitude": 23.7807777,
    "longitude": 90.3492857,
    "nameEn": "Bangladesh",
    "nameRu": "Бангладеш",
    "flagResId": "flag_bd",
    "alpha2": "BD"
  },
  {
    "id": 15,
    "latitude": 13.1013529,
    "longitude": -59.6140473,
    "nameEn": "Barbados",
    "nameRu": "Барбадос",
    "flagResId": "flag_bb",
    "alpha2": "BB"
  },
  {
    "id": 16,
    "latitude": 50.8550625,
    "longitude": 4.3053505,
    "nameEn": "Belgium",
    "nameRu": "Бельгия",
    "flagResId": "flag_be",
    "alpha2": "BE",
    "continent": "Eurasia"
  },
  {
    "id": 17,
    "latitude": 17.5056225,
    "longitude": -88.2293856,
    "nameEn": "Belize",
    "nameRu": "Белиз",
    "flagResId": "flag_bz",
    "alpha2": "BZ"
  },
  {
    "id": 18,
    "latitude": 53.8840092,
    "longitude": 27.5796473,
    "nameEn": "Belorussia",
    "nameRu": "Белоруссия",
    "flagResId": "flag_by",
    "alpha2": "BY",
    "continent": "Eurasia"
  },
  {
    "id": 19,
    "latitude": 6.4960355,
    "longitude": 2.5872797,
    "nameEn": "Benin",
    "nameRu": "Бенин",
    "flagResId": "flag_bj",
    "alpha2": "BJ"
  },
  {
    "id": 20,
    "latitude": -16.5205361,
    "longitude": -68.1941175,
    "nameEn": "Bolivia",
    "nameRu": "Боливия",
    "flagResId": "flag_bo",
    "alpha2": "BO"
  },
  {
    "id": 21,
    "latitude": 43.8938256,
    "longitude": 18.3129519,
    "nameEn": "Bosnia and Herzegovina",
    "nameRu": "Босния и Герцеговина",
    "flagResId": "flag_ba",
    "alpha2": "BA",
    "continent": "Eurasia"
  },
  {
    "id": 22,
    "latitude": -24.6091349,
    "longitude": 25.8604646,
    "nameEn": "Botswana",
    "nameRu": "Ботсвана",
    "flagResId": "flag_bw",
    "alpha2": "BW"
  },
  {
    "id": 23,
    "latitude": -15.721387,
    "longitude": -48.0774423,
    "nameEn": "Brazil",
    "nameRu": "Бразилия",
    "flagResId": "flag_br",
    "alpha2": "BR"
  },
  {
    "id": 24,
    "latitude": 4.9062259,
    "longitude": 114.9030708,
    "nameEn": "Brunei",
    "nameRu": "Бруней",
    "flagResId": "flag_bn",
    "alpha2": "BN"
  },
  {
    "id": 25,
    "latitude": 42.695537,
    "longitude": 23.253907,
    "nameEn": "Bulgaria",
    "nameRu": "Болгария",
    "flagResId": "flag_bg",
    "alpha2": "BG",
    "continent": "Eurasia"
  },
  {
    "id": 26,
    "latitude": 12.3586508,
    "longitude": -1.6068835,
    "nameEn": "Burkina Faso",
    "nameRu": "Буркина-Фасо",
    "flagResId": "flag_bf",
    "alpha2": "BF"
  },
  {
    "id": 27,
    "latitude": -3.313282,
    "longitude": 29.341499,
    "nameEn": "Burundi",
    "nameRu": "Бурунди",
    "flagResId": "flag_bi",
    "alpha2": "BI"
  },
  {
    "id": 28,
    "latitude": 27.4794738,
    "longitude": 89.6033758,
    "nameEn": "Butane",
    "nameRu": "Бутан",
    "flagResId": "flag_bt",
    "alpha2": "BT"
  },
  {
    "id": 29,
    "latitude": 11.5796669,
    "longitude": 104.7501017,
    "nameEn": "Cambodia",
    "nameRu": "Камбоджа",
    "flagResId": "flag_kh",
    "alpha2": "KH"
  },
  {
    "id": 30,
    "latitude": 3.8304736,
    "longitude": 11.440413,
    "nameEn": "Cameroon",
    "nameRu": "Камерун",
    "flagResId": "flag_cm",
    "alpha2": "CM"
  },
  {
    "id": 31,
    "latitude": 45.2502975,
    "longitude": -76.0804361,
    "nameEn": "Canada",
    "nameRu": "Канада",
    "flagResId": "flag_ca",
    "alpha2": "CA"
  },
  {
    "id": 32,
    "latitude": 14.9365278,
    "longitude": -23.541749,
    "nameEn": "Cape Verde",
    "nameRu": "Кабо-Верде",
    "flagResId": "flag_cv",
    "alpha2": "CV"
  },
  {
    "id": 33,
    "latitude": 4.3783071,
    "longitude": 18.5421796,
    "nameEn": "Central African Republic",
    "nameRu": "Центральноафриканская Республика",
    "flagResId": "flag_cf",
    "alpha2": "CF"
  },
  {
    "id": 34,
    "latitude": 12.1203,
    "longitude": 15.0224395,
    "nameEn": "Chad",
    "nameRu": "Чад",
    "flagResId": "flag_td",
    "alpha2": "TD"
  },
  {
    "id": 35,
    "latitude": -33.4724228,
    "longitude": -70.7699143,
    "nameEn": "Chile",
    "nameRu": "Чили",
    "flagResId": "flag_cl",
    "alpha2": "CL"
  },
  {
    "id": 36,
    "latitude": 4.6486259,
    "longitude": -74.2478921,
    "nameEn": "Colombia",
    "nameRu": "Колумбия",
    "flagResId": "flag_co",
    "alpha2": "CO"
  },
  {
    "id": 37,
    "latitude": -11.742165,
    "longitude": 43.35286,
    "nameEn": "Comoros",
    "nameRu": "Коморы",
    "flagResId": "flag_km",
    "alpha2": "KM"
  },
  {
    "id": 38,
    "latitude": 9.935697,
    "longitude": -84.1483646,
    "nameEn": "Costa Rica",
    "nameRu": "Коста-Рика",
    "flagResId": "flag_cr",
    "alpha2": "CR"
  },
  {
    "id": 39,
    "latitude": 6.8161509,
    "longitude": -5.3161554,
    "nameEn": "Cote d'Ivoire",
    "nameRu": "Кот-д’Ивуар",
    "flagResId": "flag_ci",
    "alpha2": "CI"
  },
  {
    "id": 40,
    "latitude": 45.8402941,
    "longitude": 15.894292,
    "nameEn": "Croatia",
    "nameRu": "Хорватия",
    "flagResId": "flag_hr",
    "alpha2": "HR",
    "continent": "Eurasia"
  },
  {
    "id": 41,
    "latitude": 23.0509409,
    "longitude": -82.4730867,
    "nameEn": "Cuba",
    "nameRu": "Куба",
    "flagResId": "flag_cu",
    "alpha2": "CU"
  },
  {
    "id": 42,
    "latitude": 35.171208,
    "longitude": 33.377862,
    "nameEn": "Cyprus",
    "nameRu": "Кипр",
    "flagResId": "flag_cy",
    "alpha2": "CY"
  },
  {
    "id": 43,
    "latitude": 50.0598058,
    "longitude": 14.3255417,
    "nameEn": "Czech",
    "nameRu": "Чехия",
    "flagResId": "flag_cz",
    "alpha2": "CZ",
    "continent": "Eurasia"
  },
  {
    "id": 44,
    "latitude": 39.0292506,
    "longitude": 125.672072,
    "nameEn": "Democratic People's Republic of Korea",
    "nameRu": "Корейская Народно-Демократическая Республика",
    "flagResId": "flag_kp",
    "alpha2": "KP"
  },
  {
    "id": 45,
    "latitude": -4.4011293,
    "longitude": 15.2527045,
    "nameEn": "Democratic Republic of Congo",
    "nameRu": "Демократическая Республика Конго",
    "flagResId": "flag_cd",
    "alpha2": "CD"
  },
  {
    "id": 46,
    "latitude": 55.6713442,
    "longitude": 12.5237846,
    "nameEn": "Denmark",
    "nameRu": "Дания",
    "flagResId": "flag_dk",
    "alpha2": "DK",
    "continent": "Eurasia"
  },
  {
    "id": 47,
    "latitude": 11.5748011,
    "longitude": 43.12076,
    "nameEn": "Djibouti",
    "nameRu": "Джибути",
    "flagResId": "flag_dj",
    "alpha2": "DJ"
  },
  {
    "id": 48,
    "latitude": 15.3061008,
    "longitude": -61.3860845,
    "nameEn": "Dominica",
    "nameRu": "Доминика",
    "flagResId": "flag_dm",
    "alpha2": "DM"
  },
  {
    "id": 49,
    "latitude": 18.4801013,
    "longitude": -69.982031,
    "nameEn": "Dominican Republic",
    "nameRu": "Доминиканская Республика",
    "flagResId": "flag_do",
    "alpha2": "DO"
  },
  {
    "id": 50,
    "latitude": -8.5563299,
    "longitude": 125.5349072,
    "nameEn": "East Timor",
    "nameRu": "Восточный Тимор",
    "flagResId": "flag_tl",
    "alpha2": "TL"
  },
  {
    "id": 51,
    "latitude": -0.1862504,
    "longitude": -78.5706233,
    "nameEn": "Ecuador",
    "nameRu": "Эквадор",
    "flagResId": "flag_ec",
    "alpha2": "EC"
  },
  {
    "id": 52,
    "latitude": 30.0595581,
    "longitude": 31.2234449,
    "nameEn": "Egypt",
    "nameRu": "Египет",
    "flagResId": "flag_eg",
    "alpha2": "EG"
  },
  {
    "id": 53,
    "latitude": 1.384211,
    "longitude": 10.133261,
    "nameEn": "Equatorial Guinea",
    "nameRu": "Экваториальная Гвинея",
    "flagResId": "flag_gq",
    "alpha2": "GQ"
  },
  {
    "id": 54,
    "latitude": 15.3258971,
    "longitude": 38.881709,
    "nameEn": "Eritrea",
    "nameRu": "Эритрея",
    "flagResId": "flag_er",
    "alpha2": "ER"
  },
  {
    "id": 55,
    "latitude": 59.432149,
    "longitude": 24.75098,
    "nameEn": "Estonia",
    "nameRu": "Эстония",
    "flagResId": "flag_ee",
    "alpha2": "EE",
    "continent": "Eurasia"
  },
  {
    "id": 56,
    "latitude": 8.9633398,
    "longitude": 38.7081046,
    "nameEn": "Ethiopia",
    "nameRu": "Эфиопия",
    "flagResId": "flag_et",
    "alpha2": "ET"
  },
  {
    "id": 57,
    "latitude": 6.9192907,
    "longitude": 158.1500387,
    "nameEn": "Federated States of Micronesia",
    "nameRu": "Федеративные Штаты Микронезии",
    "flagResId": "flag_fm",
    "alpha2": "FM"
  },
  {
    "id": 58,
    "latitude": -17.988819,
    "longitude": 178.225904,
    "nameEn": "Fiji",
    "nameRu": "Фиджи",
    "flagResId": "flag_fj",
    "alpha2": "FJ"
  },
  {
    "id": 59,
    "latitude": 60.167572,
    "longitude": 24.93662,
    "nameEn": "Finland",
    "nameRu": "Финляндия",
    "flagResId": "flag_fi",
    "alpha2": "FI",
    "continent": "Eurasia"
  },
  {
    "id": 60,
    "latitude": 48.8589507,
    "longitude": 2.2770204,
    "nameEn": "France",
    "nameRu": "Франция",
    "flagResId": "flag_fr",
    "alpha2": "FR",
    "continent": "Eurasia"
  },
  {
    "id": 61,
    "latitude": 0.387848,
    "longitude": 9.678212,
    "nameEn": "Gabon",
    "nameRu": "Габон",
    "flagResId": "flag_ga",
    "alpha2": "GA"
  },
  {
    "id": 62,
    "latitude": 13.45622,
    "longitude": -16.59123,
    "nameEn": "Gambia",
    "nameRu": "Гамбия",
    "flagResId": "flag_gm",
    "alpha2": "GM"
  },
  {
    "id": 63,
    "latitude": 41.7326304,
    "longitude": 44.6987697,
    "nameEn": "Georgia",
    "nameRu": "Грузия",
    "flagResId": "flag_ge",
    "alpha2": "GE",
    "continent": "Eurasia"
  },
  {
    "id": 64,
    "latitude": 52.5069704,
    "longitude": 13.2846499,
    "nameEn": "Germany",
    "nameRu": "Германия",
    "flagResId": "flag_de",
    "alpha2": "DE",
    "continent": "Eurasia"
  },
  {
    "id": 65,
    "latitude": 5.5913754,
    "longitude": -0.2497696,
    "nameEn": "Ghana",
    "nameRu": "Гана",
    "flagResId": "flag_gh",
    "alpha2": "GH"
  },
  {
    "id": 66,
    "latitude": 51.5287718,
    "longitude": -0.2416806,
    "nameEn": "Great Britain",
    "nameRu": "Великобритания",
    "flagResId": "flag_gb",
    "alpha2": "GB",
    "continent": "Eurasia"
  },
  {
    "id": 67,
    "latitude": 37.9908997,
    "longitude": 23.7033199,
    "nameEn": "Greece",
    "nameRu": "Греция",
    "flagResId": "flag_gr",
    "alpha2": "GR",
    "continent": "Eurasia"
  },
  {
    "id": 68,
    "latitude": 12.106384,
    "longitude": -61.696128,
    "nameEn": "Grenada",
    "nameRu": "Гренада",
    "flagResId": "flag_gd",
    "alpha2": "GD"
  },
  {
    "id": 69,
    "latitude": 14.6263757,
    "longitude": -90.5626006,
    "nameEn": "Guatemala",
    "nameRu": "Гватемала",
    "flagResId": "flag_gt",
    "alpha2": "GT"
  },
  {
    "id": 70,
    "latitude": 11.8696287,
    "longitude": -15.6473428,
    "nameEn": "Guinea bissau",
    "nameRu": "Гвинея-Бисау",
    "flagResId": "flag_gw",
    "alpha2": "GW"
  },
  {
    "id": 71,
    "latitude": 9.662174,
    "longitude": -13.561284,
    "nameEn": "Guinea",
    "nameRu": "Гвинея",
    "flagResId": "flag_gn",
    "alpha2": "GN"
  },
  {
    "id": 72,
    "latitude": 6.790102,
    "longitude": -58.140071,
    "nameEn": "Guyana",
    "nameRu": "Гайана",
    "flagResId": "flag_gy",
    "alpha2": "GY"
  },
  {
    "id": 73,
    "latitude": 18.583826,
    "longitude": -72.283325,
    "nameEn": "Haiti",
    "nameRu": "Гаити",
    "flagResId": "flag_ht",
    "alpha2": "HT"
  },
  {
    "id": 74,
    "latitude": 14.0839962,
    "longitude": -87.2399922,
    "nameEn": "Honduras",
    "nameRu": "Гондурас",
    "flagResId": "flag_hn",
    "alpha2": "HN"
  },
  {
    "id": 75,
    "latitude": 47.4813602,
    "longitude": 18.9902205,
    "nameEn": "Hungary",
    "nameRu": "Венгрия",
    "flagResId": "flag_hu",
    "alpha2": "HU",
    "continent": "Eurasia"
  },
  {
    "id": 76,
    "latitude": 64.1335484,
    "longitude": -21.9224814,
    "nameEn": "Iceland",
    "nameRu": "Исландия",
    "flagResId": "flag_is",
    "alpha2": "IS",
    "continent": "Eurasia"
  },
  {
    "id": 77,
    "latitude": 28.6471948,
    "longitude": 76.9531792,
    "nameEn": "India",
    "nameRu": "Индия",
    "flagResId": "flag_in",
    "alpha2": "IN"
  },
  {
    "id": 78,
    "latitude": -6.2295712,
    "longitude": 106.7594779,
    "nameEn": "Indonesia",
    "nameRu": "Индонезия",
    "flagResId": "flag_id",
    "alpha2": "ID"
  },
  {
    "id": 79,
    "latitude": 35.6970118,
    "longitude": 51.2097349,
    "nameEn": "Iran",
    "nameRu": "Иран",
    "flagResId": "flag_ir",
    "alpha2": "IR"
  },
  {
    "id": 80,
    "latitude": 33.3118099,
    "longitude": 44.2858651,
    "nameEn": "Iraq",
    "nameRu": "Ирак",
    "flagResId": "flag_iq",
    "alpha2": "IQ"
  },
  {
    "id": 81,
    "latitude": 53.3244431,
    "longitude": -6.3857859,
    "nameEn": "Ireland",
    "nameRu": "Ирландия",
    "flagResId": "flag_ie",
    "alpha2": "IE",
    "continent": "Eurasia"
  },
  {
    "id": 82,
    "latitude": 31.77416,
    "longitude": 35.210974,
    "nameEn": "Israel",
    "nameRu": "Израиль",
    "flagResId": "flag_il",
    "alpha2": "IL",
    "continent": "Eurasia"
  },
  {
    "id": 83,
    "latitude": 41.9102415,
    "longitude": 12.3959148,
    "nameEn": "Italy",
    "nameRu": "Италия",
    "flagResId": "flag_it",
    "alpha2": "IT",
    "continent": "Eurasia"
  },
  {
    "id": 84,
    "latitude": 18.0180148,
    "longitude": -76.8356758,
    "nameEn": "Jamaica",
    "nameRu": "Ямайка",
    "flagResId": "flag_jm",
    "alpha2": "JM"
  },
  {
    "id": 85,
    "latitude": 35.6693863,
    "longitude": 139.601297,
    "nameEn": "Japan",
    "nameRu": "Япония",
    "flagResId": "flag_jp",
    "alpha2": "JP"
  },
  {
    "id": 86,
    "latitude": 31.8359753,
    "longitude": 35.8075468,
    "nameEn": "Jordan",
    "nameRu": "Иордания",
    "flagResId": "flag_io",
    "alpha2": "JO"
  },
  {
    "id": 87,
    "latitude": 51.1480774,
    "longitude": 71.3393077,
    "nameEn": "Kazakhstan",
    "nameRu": "Казахстан",
    "flagResId": "flag_kz",
    "alpha2": "KZ",
    "continent": "Eurasia"
  },
  {
    "id": 88,
    "latitude": -1.3028618,
    "longitude": 36.7073118,
    "nameEn": "Kenya",
    "nameRu": "Кения",
    "flagResId": "flag_ke",
    "alpha2": "KE"
  },
  {
    "id": 89,
    "latitude": 1.4333544,
    "longitude": 172.9912452,
    "nameEn": "Kiribati",
    "nameRu": "Кирибати",
    "flagResId": "flag_ki",
    "alpha2": "KI"
  },
  {
    "id": 90,
    "latitude": 29.293313,
    "longitude": 47.982745,
    "nameEn": "Kuwait",
    "nameRu": "Кувейт",
    "flagResId": "flag_kw",
    "alpha2": "KW"
  },
  {
    "id": 91,
    "latitude": 42.8769795,
    "longitude": 74.5218213,
    "nameEn": "Kyrgyzstan",
    "nameRu": "Киргизия",
    "flagResId": "flag_kg",
    "alpha2": "KG",
    "continent": "Eurasia"
  },
  {
    "id": 92,
    "latitude": 18.02601,
    "longitude": 102.726888,
    "nameEn": "Laos",
    "nameRu": "Лаос",
    "flagResId": "flag_la",
    "alpha2": "LA"
  },
  {
    "id": 93,
    "latitude": 56.9715833,
    "longitude": 23.9890812,
    "nameEn": "Latvia",
    "nameRu": "Латвия",
    "flagResId": "flag_lv",
    "alpha2": "LV",
    "continent": "Eurasia"
  },
  {
    "id": 94,
    "latitude": 33.8892527,
    "longitude": 35.4867727,
    "nameEn": "Lebanon",
    "nameRu": "Ливан",
    "flagResId": "flag_lb",
    "alpha2": "LB"
  },
  {
    "id": 95,
    "latitude": -29.3367367,
    "longitude": 27.4820519,
    "nameEn": "Lesotho",
    "nameRu": "Лесото",
    "flagResId": "flag_ls",
    "alpha2": "LS"
  },
  {
    "id": 96,
    "latitude": 6.2954943,
    "longitude": -10.7871876,
    "nameEn": "Liberia",
    "nameRu": "Либерия",
    "flagResId": "flag_lr",
    "alpha2": "LR"
  },
  {
    "id": 97,
    "latitude": 32.80671,
    "longitude": 13.187983,
    "nameEn": "Libya",
    "nameRu": "Ливия",
    "flagResId": "flag_ly",
    "alpha2": "LY"
  },
  {
    "id": 98,
    "latitude": 47.1427529,
    "longitude": 9.5086904,
    "nameEn": "Liechtenstein",
    "nameRu": "Лихтенштейн",
    "flagResId": "flag_li",
    "alpha2": "LI",
    "continent": "Eurasia"
  },
  {
    "id": 99,
    "latitude": 54.7002886,
    "longitude": 25.1128506,
    "nameEn": "Lithuania",
    "nameRu": "Литва",
    "flagResId": "flag_lt",
    "alpha2": "LT",
    "continent": "Eurasia"
  },
  {
    "id": 100,
    "latitude": 49.6076553,
    "longitude": 6.1008507,
    "nameEn": "Luxembourg",
    "nameRu": "Люксембург",
    "flagResId": "flag_lu",
    "alpha2": "LU",
    "continent": "Eurasia"
  },
  {
    "id": 101,
    "latitude": 41.9991965,
    "longitude": 21.3548506,
    "nameEn": "Macedonia",
    "nameRu": "Македония",
    "flagResId": "flag_mk",
    "alpha2": "MK",
    "continent": "Eurasia"
  },
  {
    "id": 102,
    "latitude": -18.887503,
    "longitude": 47.442474,
    "nameEn": "Madagascar",
    "nameRu": "Мадагаскар",
    "flagResId": "flag_mg",
    "alpha2": "MG"
  },
  {
    "id": 103,
    "latitude": -13.9550243,
    "longitude": 33.7225254,
    "nameEn": "Malawi",
    "nameRu": "Малави",
    "flagResId": "flag_mw",
    "alpha2": "MW"
  },
  {
    "id": 104,
    "latitude": 3.138675,
    "longitude": 101.6169493,
    "nameEn": "Malaysia",
    "nameRu": "Малайзия",
    "flagResId": "flag_my",
    "alpha2": "MY"
  },
  {
    "id": 105,
    "latitude": 4.17385,
    "longitude": 73.508802,
    "nameEn": "Maldives",
    "nameRu": "Мальдивы",
    "flagResId": "flag_mv",
    "alpha2": "MV"
  },
  {
    "id": 106,
    "latitude": 12.6127496,
    "longitude": -8.0655532,
    "nameEn": "Mali",
    "nameRu": "Мали",
    "flagResId": "flag_ml",
    "alpha2": "ML"
  },
  {
    "id": 107,
    "latitude": 35.8984892,
    "longitude": 14.5087876,
    "nameEn": "Malta",
    "nameRu": "Мальта",
    "flagResId": "flag_mt",
    "alpha2": "MT"
  },
  {
    "id": 108,
    "latitude": 7.1045756,
    "longitude": 171.3526867,
    "nameEn": "Marshall Islands",
    "nameRu": "Маршалловы Острова",
    "flagResId": "flag_mh",
    "alpha2": "MH"
  },
  {
    "id": 109,
    "latitude": 18.0673211,
    "longitude": -16.023601,
    "nameEn": "Mauritania",
    "nameRu": "Мавритания",
    "flagResId": "flag_mr",
    "alpha2": "MR"
  },
  {
    "id": 110,
    "latitude": -20.169595,
    "longitude": 57.511223,
    "nameEn": "Mauritius",
    "nameRu": "Маврикий",
    "flagResId": "flag_mu",
    "alpha2": "MU"
  },
  {
    "id": 111,
    "latitude": 19.3910038,
    "longitude": -99.2836974,
    "nameEn": "Mexico",
    "nameRu": "Мексика",
    "flagResId": "flag_mx",
    "alpha2": "MX"
  },
  {
    "id": 112,
    "latitude": 46.9999648,
    "longitude": 28.7881367,
    "nameEn": "Moldavia",
    "nameRu": "Молдавия",
    "flagResId": "flag_md",
    "alpha2": "MD",
    "continent": "Eurasia"
  },
  {
    "id": 113,
    "latitude": 43.733792,
    "longitude": 7.419665,
    "nameEn": "Monaco",
    "nameRu": "Монако",
    "flagResId": "flag_mc",
    "alpha2": "MC",
    "continent": "Eurasia"
  },
  {
    "id": 114,
    "latitude": 47.8917951,
    "longitude": 106.7617876,
    "nameEn": "Mongolia",
    "nameRu": "Монголия",
    "flagResId": "flag_mn",
    "alpha2": "MN",
    "continent": "Eurasia"
  },
  {
    "id": 115,
    "latitude": 42.4321061,
    "longitude": 19.1858388,
    "nameEn": "Montenegro",
    "nameRu": "Черногория",
    "flagResId": "flag_me",
    "alpha2": "ME",
    "continent": "Eurasia"
  },
  {
    "id": 116,
    "latitude": 33.979985,
    "longitude": -6.834933,
    "nameEn": "Morocco",
    "nameRu": "Марокко",
    "flagResId": "flag_ma",
    "alpha2": "MA"
  },
  {
    "id": 117,
    "latitude": -25.8960874,
    "longitude": 32.5406433,
    "nameEn": "Mozambique",
    "nameRu": "Мозамбик",
    "flagResId": "flag_mz",
    "alpha2": "MZ"
  },
  {
    "id": 118,
    "latitude": 19.7470771,
    "longitude": 96.0533896,
    "nameEn": "Myanmar",
    "nameRu": "Мьянма",
    "flagResId": "flag_mm",
    "alpha2": "MM"
  },
  {
    "id": 119,
    "latitude": -22.5635826,
    "longitude": 16.9921856,
    "nameEn": "Namibia",
    "nameRu": "Намибия",
    "flagResId": "flag_na",
    "alpha2": "NA"
  },
  {
    "id": 120,
    "latitude": -0.52695,
    "longitude": 166.934466,
    "nameEn": "Nauru",
    "nameRu": "Науру",
    "flagResId": "flag_nr",
    "alpha2": "NR"
  },
  {
    "id": 121,
    "latitude": 27.7090319,
    "longitude": 85.2911132,
    "nameEn": "Nepal",
    "nameRu": "Непал",
    "flagResId": "flag_np",
    "alpha2": "NP"
  },
  {
    "id": 122,
    "latitude": 52.354775,
    "longitude": 4.75854,
    "nameEn": "Netherlands",
    "nameRu": "Нидерланды",
    "flagResId": "flag_nl",
    "alpha2": "NL",
    "continent": "Eurasia"
  },
  {
    "id": 123,
    "latitude": -41.291618,
    "longitude": 174.771591,
    "nameEn": "New Zealand",
    "nameRu": "Новая Зеландия",
    "flagResId": "flag_nz",
    "alpha2": "NZ"
  },
  {
    "id": 124,
    "latitude": 12.0978181,
    "longitude": -86.3285012,
    "nameEn": "Nicaragua",
    "nameRu": "Никарагуа",
    "flagResId": "flag_ni",
    "alpha2": "NI"
  },
  {
    "id": 125,
    "latitude": 13.512926,
    "longitude": 2.048992,
    "nameEn": "Niger",
    "nameRu": "Нигер",
    "flagResId": "flag_ne",
    "alpha2": "NE"
  },
  {
    "id": 126,
    "latitude": 9.0546462,
    "longitude": 7.2542698,
    "nameEn": "Nigeria",
    "nameRu": "Нигерия",
    "flagResId": "flag_ng",
    "alpha2": "NG"
  },
  {
    "id": 127,
    "latitude": 59.920739,
    "longitude": 10.750814,
    "nameEn": "Norway",
    "nameRu": "Норвегия",
    "flagResId": "flag_no",
    "alpha2": "NO",
    "continent": "Eurasia"
  },
  {
    "id": 128,
    "latitude": 23.5842607,
    "longitude": 58.2835799,
    "nameEn": "Oman",
    "nameRu": "Оман",
    "flagResId": "flag_om",
    "alpha2": "OM"
  },
  {
    "id": 129,
    "latitude": 33.6163232,
    "longitude": 72.9460225,
    "nameEn": "Pakistan",
    "nameRu": "Пакистан",
    "flagResId": "flag_pk",
    "alpha2": "PK"
  },
  {
    "id": 130,
    "latitude": 7.499584,
    "longitude": 134.6216048,
    "nameEn": "Palau",
    "nameRu": "Палау",
    "flagResId": "flag_pw",
    "alpha2": "PW"
  },
  {
    "id": 131,
    "latitude": 31.905163,
    "longitude": 35.205796,
    "nameEn": "Palestine",
    "nameRu": "Палестина",
    "flagResId": "flag_ps",
    "alpha2": "PS",
    "continent": "Eurasia"
  },
  {
    "id": 132,
    "latitude": 9.0817276,
    "longitude": -79.5932242,
    "nameEn": "Panama",
    "nameRu": "Панама",
    "flagResId": "flag_pa",
    "alpha2": "PA"
  },
  {
    "id": 133,
    "latitude": -9.40142,
    "longitude": 147.225444,
    "nameEn": "Papua New Guinea",
    "nameRu": "Папуа — Новая Гвинея",
    "flagResId": "flag_pg",
    "alpha2": "PG"
  },
  {
    "id": 134,
    "latitude": -25.2966809,
    "longitude": -57.6681294,
    "nameEn": "Paraguay",
    "nameRu": "Парагвай",
    "flagResId": "flag_py",
    "alpha2": "PY"
  },
  {
    "id": 135,
    "latitude": 39.9390731,
    "longitude": 116.1172713,
    "nameEn": "People's Republic of China",
    "nameRu": "Китайская Народная Республика",
    "flagResId": "flag_cn",
    "alpha2": "CN"
  },
  {
    "id": 136,
    "latitude": -12.0262676,
    "longitude": -77.1278657,
    "nameEn": "Peru",
    "nameRu": "Перу",
    "flagResId": "flag_pe",
    "alpha2": "PE"
  },
  {
    "id": 137,
    "latitude": 14.630674,
    "longitude": 121.064338,
    "nameEn": "Philippines",
    "nameRu": "Филиппины",
    "flagResId": "flag_ph",
    "alpha2": "PH"
  },
  {
    "id": 138,
    "latitude": 52.2330653,
    "longitude": 20.921111,
    "nameEn": "Poland",
    "nameRu": "Польша",
    "flagResId": "flag_pl",
    "alpha2": "PL",
    "continent": "Eurasia"
  },
  {
    "id": 139,
    "latitude": 38.7437396,
    "longitude": -9.2302434,
    "nameEn": "Portugal",
    "nameRu": "Португалия",
    "flagResId": "flag_pt",
    "alpha2": "PT",
    "continent": "Eurasia"
  },
  {
    "id": 140,
    "latitude": 25.2842534,
    "longitude": 51.3719104,
    "nameEn": "Qatar",
    "nameRu": "Катар",
    "flagResId": "flag_qa",
    "alpha2": "QA"
  },
  {
    "id": 141,
    "latitude": -4.24684,
    "longitude": 15.0871355,
    "nameEn": "Republic of the Congo",
    "nameRu": "Республика Конго",
    "flagResId": "flag_cg",
    "alpha2": "CG"
  },
  {
    "id": 142,
    "latitude": 44.4379853,
    "longitude": 25.9545534,
    "nameEn": "Romania",
    "nameRu": "Румыния",
    "flagResId": "flag_ro",
    "alpha2": "RO",
    "continent": "Eurasia"
  },
  {
    "id": 143,
    "latitude": 55.7520263,
    "longitude": 37.6153107,
    "nameEn": "Russia",
    "nameRu": "Россия",
    "flagResId": "flag_ru",
    "alpha2": "RU",
    "continent": "Eurasia"
  },
  {
    "id": 144,
    "latitude": -1.9546259,
    "longitude": 30.0345063,
    "nameEn": "Rwanda",
    "nameRu": "Руанда",
    "flagResId": "flag_rw",
    "alpha2": "RW"
  },
  {
    "id": 145,
    "latitude": 17.3022341,
    "longitude": -62.7323441,
    "nameEn": "Saint Kitts and Nevis",
    "nameRu": "Сент-Китс и Невис",
    "flagResId": "flag_kn",
    "alpha2": "KN"
  },
  {
    "id": 146,
    "latitude": 14.008947,
    "longitude": -60.987459,
    "nameEn": "Saint Lucia",
    "nameRu": "Сент-Люсия",
    "flagResId": "flag_lc",
    "alpha2": "LC"
  },
  {
    "id": 147,
    "latitude": 13.1567684,
    "longitude": -61.2290382,
    "nameEn": "Saint Vincent and the Grenadines",
    "nameRu": "Сент-Винсент и Гренадины",
    "flagResId": "flag_vc",
    "alpha2": "VC"
  },
  {
    "id": 148,
    "latitude": 13.6915591,
    "longitude": -89.2497136,
    "nameEn": "Salvador",
    "nameRu": "Сальвадор",
    "flagResId": "flag_sv",
    "alpha2": "SV"
  },
  {
    "id": 149,
    "latitude": -13.8598265,
    "longitude": -171.8031745,
    "nameEn": "Samoa",
    "nameRu": "Самоа",
    "flagResId": "flag_ws",
    "alpha2": "WS"
  },
  {
    "id": 150,
    "latitude": 43.9323429,
    "longitude": 12.4368999,
    "nameEn": "San Marino",
    "nameRu": "Сан-Марино",
    "flagResId": "flag_sm",
    "alpha2": "SM",
    "continent": "Eurasia"
  },
  {
    "id": 151,
    "latitude": 0.3420646,
    "longitude": 6.6925253,
    "nameEn": "Sao Tome and Principe",
    "nameRu": "Сан-Томе и Принсипи",
    "flagResId": "flag_st",
    "alpha2": "ST"
  },
  {
    "id": 152,
    "latitude": 24.7255553,
    "longitude": 46.5423348,
    "nameEn": "Saudi Arabia",
    "nameRu": "Саудовская Аравия",
    "flagResId": "flag_sa",
    "alpha2": "SA"
  },
  {
    "id": 153,
    "latitude": 14.768481,
    "longitude": -17.279396,
    "nameEn": "Senegal",
    "nameRu": "Сенегал",
    "flagResId": "flag_sn",
    "alpha2": "SN"
  },
  {
    "id": 154,
    "latitude": 44.8154033,
    "longitude": 20.2825129,
    "nameEn": "Serbia",
    "nameRu": "Сербия",
    "flagResId": "flag_rs",
    "alpha2": "RS",
    "continent": "Eurasia"
  },
  {
    "id": 155,
    "latitude": -4.6303398,
    "longitude": 55.4253013,
    "nameEn": "Seychelles",
    "nameRu": "Сейшельские Острова",
    "flagResId": "flag_sc",
    "alpha2": "SC"
  },
  {
    "id": 156,
    "latitude": 8.4554418,
    "longitude": -13.2593019,
    "nameEn": "Sierra Leone",
    "nameRu": "Сьерра-Леоне",
    "flagResId": "flag_sl",
    "alpha2": "SL"
  },
  {
    "id": 157,
    "latitude": 1.3440852,
    "longitude": 103.6839579,
    "nameEn": "Singapore",
    "nameRu": "Сингапур",
    "flagResId": "flag_sg",
    "alpha2": "SG"
  },
  {
    "id": 158,
    "latitude": 48.15685,
    "longitude": 17.122315,
    "nameEn": "Slovakia",
    "nameRu": "Словакия",
    "flagResId": "flag_sk",
    "alpha2": "SK",
    "continent": "Eurasia"
  },
  {
    "id": 159,
    "latitude": 46.0662151,
    "longitude": 14.4620592,
    "nameEn": "Slovenia",
    "nameRu": "Словения",
    "flagResId": "flag_si",
    "alpha2": "SI",
    "continent": "Eurasia"
  },
  {
    "id": 160,
    "latitude": -9.4342355,
    "longitude": 159.9382704,
    "nameEn": "Solomon islands",
    "nameRu": "Соломоновы Острова",
    "flagResId": "flag_sb",
    "alpha2": "SB"
  },
  {
    "id": 161,
    "latitude": 2.0593708,
    "longitude": 45.2366242,
    "nameEn": "Somalia",
    "nameRu": "Сомали",
    "flagResId": "flag_so",
    "alpha2": "SO"
  },
  {
    "id": 162,
    "latitude": -33.918858,
    "longitude": 18.541768,
    "nameEn": "South Africa",
    "nameRu": "Южно-Африканская Республика",
    "flagResId": "flag_za",
    "alpha2": "ZA"
  },
  {
    "id": 163,
    "latitude": 4.8608588,
    "longitude": 31.5071485,
    "nameEn": "South Sudan",
    "nameRu": "Южный Судан",
    "flagResId": "flag_ss",
    "alpha2": "SS"
  },
  {
    "id": 164,
    "latitude": 40.4381311,
    "longitude": -3.8196214,
    "nameEn": "Spain",
    "nameRu": "Испания",
    "flagResId": "flag_es",
    "alpha2": "ES",
    "continent": "Eurasia"
  },
  {
    "id": 165,
    "latitude": 6.917992,
    "longitude": 79.910732,
    "nameEn": "Sri Lanka",
    "nameRu": "Шри-Ланка",
    "flagResId": "flag_lk",
    "alpha2": "LK"
  },
  {
    "id": 166,
    "latitude": 15.5016995,
    "longitude": 32.5025559,
    "nameEn": "Sudan",
    "nameRu": "Судан",
    "flagResId": "flag_sd",
    "alpha2": "SD"
  },
  {
    "id": 167,
    "latitude": 5.8484912,
    "longitude": -55.2478874,
    "nameEn": "Suriname",
    "nameRu": "Суринам",
    "flagResId": "flag_sr",
    "alpha2": "SR"
  },
  {
    "id": 168,
    "latitude": -26.3152797,
    "longitude": 31.1021656,
    "nameEn": "Swaziland",
    "nameRu": "Свазиленд",
    "flagResId": "flag_sz",
    "alpha2": "SZ"
  },
  {
    "id": 169,
    "latitude": 59.326242,
    "longitude": 17.8419706,
    "nameEn": "Sweden",
    "nameRu": "Швеция",
    "flagResId": "flag_se",
    "alpha2": "SE",
    "continent": "Eurasia"
  },
  {
    "id": 170,
    "latitude": 46.9547658,
    "longitude": 7.3248302,
    "nameEn": "Switzerland",
    "nameRu": "Швейцария",
    "flagResId": "flag_ch",
    "alpha2": "CH",
    "continent": "Eurasia"
  },
  {
    "id": 171,
    "latitude": 33.5075989,
    "longitude": 36.2128552,
    "nameEn": "Syria",
    "nameRu": "Сирия",
    "flagResId": "flag_sy",
    "alpha2": "SY"
  },
  {
    "id": 172,
    "latitude": 38.5614373,
    "longitude": 68.7115408,
    "nameEn": "Tajikistan",
    "nameRu": "Таджикистан",
    "flagResId": "flag_tj",
    "alpha2": "TJ",
    "continent": "Eurasia"
  },
  {
    "id": 173,
    "latitude": -6.1727724,
    "longitude": 35.7031096,
    "nameEn": "Tanzania",
    "nameRu": "Танзания",
    "flagResId": "flag_tz",
    "alpha2": "TZ"
  },
  {
    "id": 174,
    "latitude": 13.7248936,
    "longitude": 100.4930239,
    "nameEn": "Thailand",
    "nameRu": "Таиланд",
    "flagResId": "flag_th",
    "alpha2": "TH"
  },
  {
    "id": 175,
    "latitude": 37.5652894,
    "longitude": 126.849465,
    "nameEn": "The Republic of Korea",
    "nameRu": "Республика Корея",
    "flagResId": "flag_kr",
    "alpha2": "KR"
  },
  {
    "id": 176,
    "latitude": 6.1824878,
    "longitude": 1.1766501,
    "nameEn": "Togo",
    "nameRu": "Того",
    "flagResId": "flag_tg",
    "alpha2": "TG"
  },
  {
    "id": 177,
    "latitude": -21.141891,
    "longitude": -175.2151109,
    "nameEn": "Tonga",
    "nameRu": "Тонга",
    "flagResId": "flag_to",
    "alpha2": "TO"
  },
  {
    "id": 178,
    "latitude": 10.6651468,
    "longitude": -61.522354,
    "nameEn": "Trinidad and Tobago",
    "nameRu": "Тринидад и Тобаго",
    "flagResId": "flag_tt",
    "alpha2": "TT"
  },
  {
    "id": 179,
    "latitude": 36.7949999,
    "longitude": 10.0732374,
    "nameEn": "Tunisia",
    "nameRu": "Тунис",
    "flagResId": "flag_tn",
    "alpha2": "TN"
  },
  {
    "id": 180,
    "latitude": 39.9035557,
    "longitude": 32.62268,
    "nameEn": "Turkey",
    "nameRu": "Турция",
    "flagResId": "flag_tr",
    "alpha2": "TR"
  },
  {
    "id": 181,
    "latitude": 37.9633952,
    "longitude": 58.1101991,
    "nameEn": "Turkmenistan",
    "nameRu": "Туркмения",
    "flagResId": "flag_tm",
    "alpha2": "TM",
    "continent": "Eurasia"
  },
  {
    "id": 182,
    "latitude": -8.535992,
    "longitude": 179.0415239,
    "nameEn": "Tuvalu",
    "nameRu": "Тувалу",
    "flagResId": "flag_tv",
    "alpha2": "TV"
  },
  {
    "id": 183,
    "latitude": 0.3132008,
    "longitude": 32.5290848,
    "nameEn": "Uganda",
    "nameRu": "Уганда",
    "flagResId": "flag_ug",
    "alpha2": "UG"
  },
  {
    "id": 184,
    "latitude": 50.4021368,
    "longitude": 30.2525089,
    "nameEn": "Ukraine",
    "nameRu": "Украина",
    "flagResId": "flag_ua",
    "alpha2": "UA",
    "continent": "Eurasia"
  },
  {
    "id": 185,
    "latitude": 24.463229,
    "longitude": 54.374392,
    "nameEn": "United Arab Emirates",
    "nameRu": "Объединённые Арабские Эмираты",
    "flagResId": "flag_ae",
    "alpha2": "AE"
  },
  {
    "id": 186,
    "latitude": 38.8881683,
    "longitude": -77.2851235,
    "nameEn": "United States of America",
    "nameRu": "Соединённые Штаты Америки",
    "flagResId": "flag_us",
    "alpha2": "US"
  },
  {
    "id": 187,
    "latitude": -34.8207362,
    "longitude": -56.3765231,
    "nameEn": "Uruguay",
    "nameRu": "Уругвай",
    "flagResId": "flag_uy",
    "alpha2": "UY"
  },
  {
    "id": 188,
    "latitude": 41.2827706,
    "longitude": 69.1392821,
    "nameEn": "Uzbekistan",
    "nameRu": "Узбекистан",
    "flagResId": "flag_uz",
    "alpha2": "UZ",
    "continent": "Eurasia"
  },
  {
    "id": 189,
    "latitude": -17.717367,
    "longitude": 168.324537,
    "nameEn": "Vanuatu",
    "nameRu": "Вануату",
    "flagResId": "flag_vu",
    "alpha2": "VU"
  },
  {
    "id": 190,
    "latitude": 41.9031335,
    "longitude": 12.4523294,
    "nameEn": "Vatican",
    "nameRu": "Ватикан",
    "flagResId": "flag_va",
    "alpha2": "VA",
    "continent": "Eurasia"
  },
  {
    "id": 191,
    "latitude": 10.4685529,
    "longitude": -66.960406,
    "nameEn": "Venezuela",
    "nameRu": "Венесуэла",
    "flagResId": "flag_ve",
    "alpha2": "VE"
  },
  {
    "id": 192,
    "latitude": 21.0227788,
    "longitude": 105.8194541,
    "nameEn": "Vietnam",
    "nameRu": "Вьетнам",
    "flagResId": "flag_vn",
    "alpha2": "VN"
  },
  {
    "id": 193,
    "latitude": 15.3831991,
    "longitude": 44.1412405,
    "nameEn": "Yemen",
    "nameRu": "Йемен",
    "flagResId": "flag_ye",
    "alpha2": "YE"
  },
  {
    "id": 194,
    "latitude": -15.4166534,
    "longitude": 28.273713,
    "nameEn": "Zambia",
    "nameRu": "Замбия",
    "flagResId": "flag_zm",
    "alpha2": "ZM"
  },
  {
    "id": 195,
    "latitude": -17.8164617,
    "longitude": 30.9868183,
    "nameEn": "Zimbabwe",
    "nameRu": "Зимбабве",
    "flagResId": "flag_zw",
    "alpha2": "ZW"
  }
]